{
    "type": "FeatureCollection",
    "features": [
        {
            "geometry": {
                "type": "Point", 
                "coordinates": [
                    35.109876, 
                    32.711323
                ]
            }, 
            "type": "Feature", 
            "properties": {
                "name": "אורנים"
            }
        }, 
        {
            "geometry": {
                "type": "Point", 
                "coordinates": [
                    34.979229, 
                    31.259451
                ]
            }, 
            "type": "Feature", 
            "properties": {
                "name": "נצאצרה"
            }
        }, 
        {
            "geometry": {
                "type": "Point", 
                "coordinates": [
                    34.873123, 
                    32.060496
                ]
            }, 
            "type": "Feature", 
            "properties": {
                "name": "גני תקווה"
            }
        }, 
        {
            "geometry": {
                "type": "Point", 
                "coordinates": [
                    35.766802, 
                    32.825618
                ]
            }, 
            "type": "Feature", 
            "properties": {
                "name": "אבני איתן"
            }
        }, 
        {
            "geometry": {
                "type": "Point", 
                "coordinates": [
                    35.288524, 
                    33.09898400000001
                ]
            }, 
            "type": "Feature", 
            "properties": {
                "name": "כפר רוזנואלד"
            }
        }, 
        {
            "geometry": {
                "type": "Point", 
                "coordinates": [
                    34.92549, 
                    32.132728
                ]
            }, 
            "type": "Feature", 
            "properties": {
                "name": "נווה ירק"
            }
        }, 
        {
            "geometry": {
                "type": "Point", 
                "coordinates": [
                    35.191272, 
                    32.734557
                ]
            }, 
            "type": "Feature", 
            "properties": {
                "name": "בית לחם הגלילית"
            }
        }, 
        {
            "geometry": {
                "type": "Point", 
                "coordinates": [
                    34.729302, 
                    31.662582
                ]
            }, 
            "type": "Feature", 
            "properties": {
                "name": "קוממיות"
            }
        }, 
        {
            "geometry": {
                "type": "Point", 
                "coordinates": [
                    34.853197, 
                    32.321457
                ]
            }, 
            "type": "Feature", 
            "properties": {
                "name": "נתניה"
            }
        }, 
        {
            "geometry": {
                "type": "Point", 
                "coordinates": [
                    34.990812, 
                    32.131923
                ]
            }, 
            "type": "Feature", 
            "properties": {
                "name": "אורנית"
            }
        }, 
        {
            "geometry": {
                "type": "Point", 
                "coordinates": [
                    35.32774, 
                    32.781844
                ]
            }, 
            "type": "Feature", 
            "properties": {
                "name": "בית רימון"
            }
        }, 
        {
            "geometry": {
                "type": "Point", 
                "coordinates": [
                    35.516022, 
                    32.365284
                ]
            }, 
            "type": "Feature", 
            "properties": {
                "name": "מחולה"
            }
        }, 
        {
            "geometry": {
                "type": "Point", 
                "coordinates": [
                    34.742874, 
                    31.65204
                ]
            }, 
            "type": "Feature", 
            "properties": {
                "name": "אלומה"
            }
        }, 
        {
            "geometry": {
                "type": "Point", 
                "coordinates": [
                    35.224692, 
                    31.797542
                ]
            }, 
            "type": "Feature", 
            "properties": {
                "name": "מקווה ישראל"
            }
        }, 
        {
            "geometry": {
                "type": "Point", 
                "coordinates": [
                    35.55454599999999, 
                    32.589024
                ]
            }, 
            "type": "Feature", 
            "properties": {
                "name": "נווה אור"
            }
        }, 
        {
            "geometry": {
                "type": "Point", 
                "coordinates": [
                    35.05922899999999, 
                    29.89632
                ]
            }, 
            "type": "Feature", 
            "properties": {
                "name": "יטבתה"
            }
        }, 
        {
            "geometry": {
                "type": "Point", 
                "coordinates": [
                    35.419974, 
                    32.687345
                ]
            }, 
            "type": "Feature", 
            "properties": {
                "name": "כפר תבור"
            }
        }, 
        {
            "geometry": {
                "type": "Point", 
                "coordinates": [
                    34.788163, 
                    31.568566
                ]
            }, 
            "type": "Feature", 
            "properties": {
                "name": "נועם"
            }
        }, 
        {
            "geometry": {
                "type": "Point", 
                "coordinates": [
                    35.736576, 
                    32.806582
                ]
            }, 
            "type": "Feature", 
            "properties": {
                "name": "אלי-עד"
            }
        }, 
        {
            "geometry": {
                "type": "Point", 
                "coordinates": [
                    35.259862, 
                    32.663418
                ]
            }, 
            "type": "Feature", 
            "properties": {
                "name": "גיניגר"
            }
        }, 
        {
            "geometry": {
                "type": "Point", 
                "coordinates": [
                    35.271919, 
                    32.929537
                ]
            }, 
            "type": "Feature", 
            "properties": {
                "name": "בענה"
            }
        }, 
        {
            "geometry": {
                "type": "Point", 
                "coordinates": [
                    35.076561, 
                    32.558074
                ]
            }, 
            "type": "Feature", 
            "properties": {
                "name": "אבן יצחק (גלעד)"
            }
        }, 
        {
            "geometry": {
                "type": "Point", 
                "coordinates": [
                    34.427061, 
                    31.298107
                ]
            }, 
            "type": "Feature", 
            "properties": {
                "name": "מגן"
            }
        }, 
        {
            "geometry": {
                "type": "Point", 
                "coordinates": [
                    35.036148, 
                    32.385555
                ]
            }, 
            "type": "Feature", 
            "properties": {
                "name": "מגל"
            }
        }, 
        {
            "geometry": {
                "type": "Point", 
                "coordinates": [
                    35.220438, 
                    32.72329
                ]
            }, 
            "type": "Feature", 
            "properties": {
                "name": "זרזיר"
            }
        }, 
        {
            "geometry": {
                "type": "Point", 
                "coordinates": [
                    34.751794, 
                    31.843443
                ]
            }, 
            "type": "Feature", 
            "properties": {
                "name": "בניה"
            }
        }, 
        {
            "geometry": {
                "type": "Point", 
                "coordinates": [
                    34.816953, 
                    31.373834
                ]
            }, 
            "type": "Feature", 
            "properties": {
                "name": "להבים"
            }
        }, 
        {
            "geometry": {
                "type": "Point", 
                "coordinates": [
                    34.93513799999999, 
                    32.24772
                ]
            }, 
            "type": "Feature", 
            "properties": {
                "name": "כפר הס"
            }
        }, 
        {
            "geometry": {
                "type": "Point", 
                "coordinates": [
                    34.929449, 
                    32.392147
                ]
            }, 
            "type": "Feature", 
            "properties": {
                "name": "גבעת חיים (מאוחד)"
            }
        }, 
        {
            "geometry": {
                "type": "Point", 
                "coordinates": [
                    34.443448, 
                    31.280894
                ]
            }, 
            "type": "Feature", 
            "properties": {
                "name": "עין הבשור"
            }
        }, 
        {
            "geometry": {
                "type": "Point", 
                "coordinates": [
                    35.122219, 
                    33.005368
                ]
            }, 
            "type": "Feature", 
            "properties": {
                "name": "בן עמי"
            }
        }, 
        {
            "geometry": {
                "type": "Point", 
                "coordinates": [
                    35.13111, 
                    32.702413
                ]
            }, 
            "type": "Feature", 
            "properties": {
                "name": "בית זיד"
            }
        }, 
        {
            "geometry": {
                "type": "Point", 
                "coordinates": [
                    35.311116, 
                    32.545455
                ]
            }, 
            "type": "Feature", 
            "properties": {
                "name": "פרזון"
            }
        }, 
        {
            "geometry": {
                "type": "Point", 
                "coordinates": [
                    34.559466, 
                    31.665944
                ]
            }, 
            "type": "Feature", 
            "properties": {
                "name": "אשקלון"
            }
        }, 
        {
            "geometry": {
                "type": "Point", 
                "coordinates": [
                    34.748021, 
                    32.013185
                ]
            }, 
            "type": "Feature", 
            "properties": {
                "name": "בת ים"
            }
        }, 
        {
            "geometry": {
                "type": "Point", 
                "coordinates": [
                    35.391945, 
                    32.676641
                ]
            }, 
            "type": "Feature", 
            "properties": {
                "name": "אום אל-גנם"
            }
        }, 
        {
            "geometry": {
                "type": "Point", 
                "coordinates": [
                    35.286476, 
                    32.941179
                ]
            }, 
            "type": "Feature", 
            "properties": {
                "name": "לבון"
            }
        }, 
        {
            "geometry": {
                "type": "Point", 
                "coordinates": [
                    35.238024, 
                    32.751801
                ]
            }, 
            "type": "Feature", 
            "properties": {
                "name": "הסוללים"
            }
        }, 
        {
            "geometry": {
                "type": "Point", 
                "coordinates": [
                    35.36089, 
                    32.566948
                ]
            }, 
            "type": "Feature", 
            "properties": {
                "name": "כפר יחזקאל"
            }
        }, 
        {
            "geometry": {
                "type": "Point", 
                "coordinates": [
                    35.287924, 
                    32.610492
                ]
            }, 
            "type": "Feature", 
            "properties": {
                "name": "עפולה"
            }
        }, 
        {
            "geometry": {
                "type": "Point", 
                "coordinates": [
                    35.161118, 
                    31.783057
                ]
            }, 
            "type": "Feature", 
            "properties": {
                "name": "בית זית"
            }
        }, 
        {
            "geometry": {
                "type": "Point", 
                "coordinates": [
                    35.314792, 
                    33.00648700000001
                ]
            }, 
            "type": "Feature", 
            "properties": {
                "name": "צוריאל"
            }
        }, 
        {
            "geometry": {
                "type": "Point", 
                "coordinates": [
                    34.759338, 
                    31.657558
                ]
            }, 
            "type": "Feature", 
            "properties": {
                "name": "זבדיאל"
            }
        }, 
        {
            "geometry": {
                "type": "Point", 
                "coordinates": [
                    35.163895, 
                    31.414591
                ]
            }, 
            "type": "Feature", 
            "properties": {
                "name": "מעון"
            }
        }, 
        {
            "geometry": {
                "type": "Point", 
                "coordinates": [
                    35.079005, 
                    31.799367
                ]
            }, 
            "type": "Feature", 
            "properties": {
                "name": "שואבה"
            }
        }, 
        {
            "geometry": {
                "type": "Point", 
                "coordinates": [
                    35.548518, 
                    32.947833
                ]
            }, 
            "type": "Feature", 
            "properties": {
                "name": "אליפלט"
            }
        }, 
        {
            "geometry": {
                "type": "Point", 
                "coordinates": [
                    34.760949, 
                    31.856127
                ]
            }, 
            "type": "Feature", 
            "properties": {
                "name": "בית גמליאל"
            }
        }, 
        {
            "geometry": {
                "type": "Point", 
                "coordinates": [
                    34.703103, 
                    31.78305499999999
                ]
            }, 
            "type": "Feature", 
            "properties": {
                "name": "גן יבנה"
            }
        }, 
        {
            "geometry": {
                "type": "Point", 
                "coordinates": [
                    35.101274, 
                    31.609467
                ]
            }, 
            "type": "Feature", 
            "properties": {
                "name": "כרמי צור"
            }
        }, 
        {
            "geometry": {
                "type": "Point", 
                "coordinates": [
                    34.746421, 
                    31.681741
                ]
            }, 
            "type": "Feature", 
            "properties": {
                "name": "זרחיה"
            }
        }, 
        {
            "geometry": {
                "type": "Point", 
                "coordinates": [
                    34.624162, 
                    31.459132
                ]
            }, 
            "type": "Feature", 
            "properties": {
                "name": "זרועה"
            }
        }, 
        {
            "geometry": {
                "type": "Point", 
                "coordinates": [
                    35.091974, 
                    32.475483
                ]
            }, 
            "type": "Feature", 
            "properties": {
                "name": "ברטעה"
            }
        }, 
        {
            "geometry": {
                "type": "Point", 
                "coordinates": [
                    34.561676, 
                    31.502205
                ]
            }, 
            "type": "Feature", 
            "properties": {
                "name": "מפלסים"
            }
        }, 
        {
            "geometry": {
                "type": "Point", 
                "coordinates": [
                    35.548501, 
                    33.247571
                ]
            }, 
            "type": "Feature", 
            "properties": {
                "name": "משגב עם"
            }
        }, 
        {
            "geometry": {
                "type": "Point", 
                "coordinates": [
                    34.940625, 
                    32.568483
                ]
            }, 
            "type": "Feature", 
            "properties": {
                "name": "מעין צבי"
            }
        }, 
        {
            "geometry": {
                "type": "Point", 
                "coordinates": [
                    35.4896, 
                    32.451098
                ]
            }, 
            "type": "Feature", 
            "properties": {
                "name": "רחוב"
            }
        }, 
        {
            "geometry": {
                "type": "Point", 
                "coordinates": [
                    34.993494, 
                    32.531345
                ]
            }, 
            "type": "Feature", 
            "properties": {
                "name": "אביאל"
            }
        }, 
        {
            "geometry": {
                "type": "Point", 
                "coordinates": [
                    35.171493, 
                    31.722057
                ]
            }, 
            "type": "Feature", 
            "properties": {
                "name": "הר גילה"
            }
        }, 
        {
            "geometry": {
                "type": "Point", 
                "coordinates": [
                    35.223682, 
                    31.942079
                ]
            }, 
            "type": "Feature", 
            "properties": {
                "name": "בית אל ב"
            }
        }, 
        {
            "geometry": {
                "type": "Point", 
                "coordinates": [
                    34.60788, 
                    31.422838
                ]
            }, 
            "type": "Feature", 
            "properties": {
                "name": "בית הגדי"
            }
        }, 
        {
            "geometry": {
                "type": "Point", 
                "coordinates": [
                    35.00328, 
                    32.306082
                ]
            }, 
            "type": "Feature", 
            "properties": {
                "name": "ניצני עוז"
            }
        }, 
        {
            "geometry": {
                "type": "Point", 
                "coordinates": [
                    35.042266, 
                    31.932476
                ]
            }, 
            "type": "Feature", 
            "properties": {
                "name": "מודיעין עילית"
            }
        }, 
        {
            "geometry": {
                "type": "Point", 
                "coordinates": [
                    34.955988, 
                    31.831615
                ]
            }, 
            "type": "Feature", 
            "properties": {
                "name": "נחשון"
            }
        }, 
        {
            "geometry": {
                "type": "Point", 
                "coordinates": [
                    35.229367, 
                    31.596885
                ]
            }, 
            "type": "Feature", 
            "properties": {
                "name": "מעלה עמוס"
            }
        }, 
        {
            "geometry": {
                "type": "Point", 
                "coordinates": [
                    35.007232, 
                    32.174913
                ]
            }, 
            "type": "Feature", 
            "properties": {
                "name": "סלעית"
            }
        }, 
        {
            "geometry": {
                "type": "Point", 
                "coordinates": [
                    35.335795, 
                    32.976208
                ]
            }, 
            "type": "Feature", 
            "properties": {
                "name": "פקיעין-בוקייעה"
            }
        }, 
        {
            "geometry": {
                "type": "Point", 
                "coordinates": [
                    34.761357, 
                    31.716335
                ]
            }, 
            "type": "Feature", 
            "properties": {
                "name": "תימורים"
            }
        }, 
        {
            "geometry": {
                "type": "Point", 
                "coordinates": [
                    35.144847, 
                    32.970682
                ]
            }, 
            "type": "Feature", 
            "properties": {
                "name": "בית העמק"
            }
        }, 
        {
            "geometry": {
                "type": "Point", 
                "coordinates": [
                    34.888076, 
                    31.951012
                ]
            }, 
            "type": "Feature", 
            "properties": {
                "name": "לוד"
            }
        }, 
        {
            "geometry": {
                "type": "Point", 
                "coordinates": [
                    35.503281, 
                    32.799997
                ]
            }, 
            "type": "Feature", 
            "properties": {
                "name": "כפר חיטים"
            }
        }, 
        {
            "geometry": {
                "type": "Point", 
                "coordinates": [
                    34.823441, 
                    31.923483
                ]
            }, 
            "type": "Feature", 
            "properties": {
                "name": "נצר סרני"
            }
        }, 
        {
            "geometry": {
                "type": "Point", 
                "coordinates": [
                    35.437351, 
                    32.199687
                ]
            }, 
            "type": "Feature", 
            "properties": {
                "name": "חמרה"
            }
        }, 
        {
            "geometry": {
                "type": "Point", 
                "coordinates": [
                    35.657995, 
                    33.196034
                ]
            }, 
            "type": "Feature", 
            "properties": {
                "name": "כפר סאלד"
            }
        }, 
        {
            "geometry": {
                "type": "Point", 
                "coordinates": [
                    35.296282, 
                    32.629987
                ]
            }, 
            "type": "Feature", 
            "properties": {
                "name": "בלפוריה"
            }
        }, 
        {
            "geometry": {
                "type": "Point", 
                "coordinates": [
                    35.003839, 
                    32.600334
                ]
            }, 
            "type": "Feature", 
            "properties": {
                "name": "בת שלמה"
            }
        }, 
        {
            "geometry": {
                "type": "Point", 
                "coordinates": [
                    35.155707, 
                    33.062311
                ]
            }, 
            "type": "Feature", 
            "properties": {
                "name": "מצובה"
            }
        }, 
        {
            "geometry": {
                "type": "Point", 
                "coordinates": [
                    34.646548, 
                    31.556984
                ]
            }, 
            "type": "Feature", 
            "properties": {
                "name": "ברור חיל"
            }
        }, 
        {
            "geometry": {
                "type": "Point", 
                "coordinates": [
                    34.9881, 
                    31.74704
                ]
            }, 
            "type": "Feature", 
            "properties": {
                "name": "בית שמש"
            }
        }, 
        {
            "geometry": {
                "type": "Point", 
                "coordinates": [
                    34.692364, 
                    31.595591
                ]
            }, 
            "type": "Feature", 
            "properties": {
                "name": "זוהר"
            }
        }, 
        {
            "geometry": {
                "type": "Point", 
                "coordinates": [
                    34.863027, 
                    32.377145
                ]
            }, 
            "type": "Feature", 
            "properties": {
                "name": "נעורים"
            }
        }, 
        {
            "geometry": {
                "type": "Point", 
                "coordinates": [
                    35.258659, 
                    32.528741
                ]
            }, 
            "type": "Feature", 
            "properties": {
                "name": "רם-און"
            }
        }, 
        {
            "geometry": {
                "type": "Point", 
                "coordinates": [
                    34.891733, 
                    31.975177
                ]
            }, 
            "type": "Feature", 
            "properties": {
                "name": "זיתן"
            }
        }, 
        {
            "geometry": {
                "type": "Point", 
                "coordinates": [
                    35.412759, 
                    32.438567
                ]
            }, 
            "type": "Feature", 
            "properties": {
                "name": "מלכישוע"
            }
        }, 
        {
            "geometry": {
                "type": "Point", 
                "coordinates": [
                    35.2147222, 
                    33.0919444
                ]
            }, 
            "type": "Feature", 
            "properties": {
                "name": "עראמשה"
            }
        }, 
        {
            "geometry": {
                "type": "Point", 
                "coordinates": [
                    35.210384, 
                    31.785859
                ]
            }, 
            "type": "Feature", 
            "properties": {
                "name": "מחנה יפה"
            }
        }, 
        {
            "geometry": {
                "type": "Point", 
                "coordinates": [
                    35.529959, 
                    32.174306
                ]
            }, 
            "type": "Feature", 
            "properties": {
                "name": "זובידאת"
            }
        }, 
        {
            "geometry": {
                "type": "Point", 
                "coordinates": [
                    35.184332, 
                    33.027398
                ]
            }, 
            "type": "Feature", 
            "properties": {
                "name": "נווה זיו"
            }
        }, 
        {
            "geometry": {
                "type": "Point", 
                "coordinates": [
                    34.877921, 
                    32.039147
                ]
            }, 
            "type": "Feature", 
            "properties": {
                "name": "גני יהודה"
            }
        }, 
        {
            "geometry": {
                "type": "Point", 
                "coordinates": [
                    35.457623, 
                    32.504061
                ]
            }, 
            "type": "Feature", 
            "properties": {
                "name": "ניר דוד"
            }
        }, 
        {
            "geometry": {
                "type": "Point", 
                "coordinates": [
                    34.610075, 
                    31.637734
                ]
            }, 
            "type": "Feature", 
            "properties": {
                "name": "בית שקמה"
            }
        }, 
        {
            "geometry": {
                "type": "Point", 
                "coordinates": [
                    35.104166, 
                    32.104475
                ]
            }, 
            "type": "Feature", 
            "properties": {
                "name": "הרדוף"
            }
        }, 
        {
            "geometry": {
                "type": "Point", 
                "coordinates": [
                    35.335795, 
                    32.976208
                ]
            }, 
            "type": "Feature", 
            "properties": {
                "name": "פקיעין (בוקייעה)"
            }
        }, 
        {
            "geometry": {
                "type": "Point", 
                "coordinates": [
                    35.115626, 
                    31.529325
                ]
            }, 
            "type": "Feature", 
            "properties": {
                "name": "קרית ארבע"
            }
        }, 
        {
            "geometry": {
                "type": "Point", 
                "coordinates": [
                    35.452637, 
                    32.242069
                ]
            }, 
            "type": "Feature", 
            "properties": {
                "name": "בקעות"
            }
        }, 
        {
            "geometry": {
                "type": "Point", 
                "coordinates": [
                    34.403472, 
                    31.351721
                ]
            }, 
            "type": "Feature", 
            "properties": {
                "name": "עין השלושה"
            }
        }, 
        {
            "geometry": {
                "type": "Point", 
                "coordinates": [
                    35.258562, 
                    32.89265
                ]
            }, 
            "type": "Feature", 
            "properties": {
                "name": "שורשים"
            }
        }, 
        {
            "geometry": {
                "type": "Point", 
                "coordinates": [
                    35.398915, 
                    32.556703
                ]
            }, 
            "type": "Feature", 
            "properties": {
                "name": "תל יוסף"
            }
        }, 
        {
            "geometry": {
                "type": "Point", 
                "coordinates": [
                    34.949377, 
                    32.197592
                ]
            }, 
            "type": "Feature", 
            "properties": {
                "name": "ניר אליהו"
            }
        }, 
        {
            "geometry": {
                "type": "Point", 
                "coordinates": [
                    35.513805, 
                    32.441881
                ]
            }, 
            "type": "Feature", 
            "properties": {
                "name": "שדה אליהו"
            }
        }, 
        {
            "geometry": {
                "type": "Point", 
                "coordinates": [
                    35.171717, 
                    32.907404
                ]
            }, 
            "type": "Feature", 
            "properties": {
                "name": "אחיהוד"
            }
        }, 
        {
            "geometry": {
                "type": "Point", 
                "coordinates": [
                    35.417507, 
                    33.027183
                ]
            }, 
            "type": "Feature", 
            "properties": {
                "name": "צבעון"
            }
        }, 
        {
            "geometry": {
                "type": "Point", 
                "coordinates": [
                    35.100447, 
                    32.59681
                ]
            }, 
            "type": "Feature", 
            "properties": {
                "name": "עין השופט"
            }
        }, 
        {
            "geometry": {
                "type": "Point", 
                "coordinates": [
                    35.777072, 
                    33.132582
                ]
            }, 
            "type": "Feature", 
            "properties": {
                "name": "מרום גולן"
            }
        }, 
        {
            "geometry": {
                "type": "Point", 
                "coordinates": [
                    35.073415, 
                    31.729682
                ]
            }, 
            "type": "Feature", 
            "properties": {
                "name": "בר גיורא"
            }
        }, 
        {
            "geometry": {
                "type": "Point", 
                "coordinates": [
                    35.04392, 
                    32.017821
                ]
            }, 
            "type": "Feature", 
            "properties": {
                "name": "עופרים"
            }
        }, 
        {
            "geometry": {
                "type": "Point", 
                "coordinates": [
                    34.893152, 
                    32.492612
                ]
            }, 
            "type": "Feature", 
            "properties": {
                "name": "שדות ים"
            }
        }, 
        {
            "geometry": {
                "type": "Point", 
                "coordinates": [
                    35.806581, 
                    32.84406500000001
                ]
            }, 
            "type": "Feature", 
            "properties": {
                "name": "רמת מגשימים"
            }
        }, 
        {
            "geometry": {
                "type": "Point", 
                "coordinates": [
                    34.920395, 
                    32.509964
                ]
            }, 
            "type": "Feature", 
            "properties": {
                "name": "אור עקיבא"
            }
        }, 
        {
            "geometry": {
                "type": "Point", 
                "coordinates": [
                    35.487064, 
                    33.049921
                ]
            }, 
            "type": "Feature", 
            "properties": {
                "name": "ריחאניה"
            }
        }, 
        {
            "geometry": {
                "type": "Point", 
                "coordinates": [
                    35.574063, 
                    32.689295
                ]
            }, 
            "type": "Feature", 
            "properties": {
                "name": "בית זרע"
            }
        }, 
        {
            "geometry": {
                "type": "Point", 
                "coordinates": [
                    34.933616, 
                    32.317718
                ]
            }, 
            "type": "Feature", 
            "properties": {
                "name": "כפר יונה"
            }
        }, 
        {
            "geometry": {
                "type": "Point", 
                "coordinates": [
                    34.965464, 
                    32.273943
                ]
            }, 
            "type": "Feature", 
            "properties": {
                "name": "כפר יעבץ"
            }
        }, 
        {
            "geometry": {
                "type": "Point", 
                "coordinates": [
                    35.076827, 
                    32.741531
                ]
            }, 
            "type": "Feature", 
            "properties": {
                "name": "יגור"
            }
        }, 
        {
            "geometry": {
                "type": "Point", 
                "coordinates": [
                    34.90099, 
                    32.391836
                ]
            }, 
            "type": "Feature", 
            "properties": {
                "name": "גאולי תימן שכון"
            }
        }, 
        {
            "geometry": {
                "type": "Point", 
                "coordinates": [
                    34.595582, 
                    31.522693
                ]
            }, 
            "type": "Feature", 
            "properties": {
                "name": "שדרות"
            }
        }, 
        {
            "geometry": {
                "type": "Point", 
                "coordinates": [
                    34.865637, 
                    31.815834
                ]
            }, 
            "type": "Feature", 
            "properties": {
                "name": "יסודות"
            }
        }, 
        {
            "geometry": {
                "type": "Point", 
                "coordinates": [
                    35.268396, 
                    32.934449
                ]
            }, 
            "type": "Feature", 
            "properties": {
                "name": "דייר אל-אסד"
            }
        }, 
        {
            "geometry": {
                "type": "Point", 
                "coordinates": [
                    35.214756, 
                    31.225086
                ]
            }, 
            "type": "Feature", 
            "properties": {
                "name": "קבועה"
            }
        }, 
        {
            "geometry": {
                "type": "Point", 
                "coordinates": [
                    34.897156, 
                    32.314725
                ]
            }, 
            "type": "Feature", 
            "properties": {
                "name": "חירות"
            }
        }, 
        {
            "geometry": {
                "type": "Point", 
                "coordinates": [
                    35.24652, 
                    32.732526
                ]
            }, 
            "type": "Feature", 
            "properties": {
                "name": "שמשית"
            }
        }, 
        {
            "geometry": {
                "type": "Point", 
                "coordinates": [
                    35.093042, 
                    32.90258
                ]
            }, 
            "type": "Feature", 
            "properties": {
                "name": "עין המפרץ"
            }
        }, 
        {
            "geometry": {
                "type": "Point", 
                "coordinates": [
                    34.926953, 
                    32.201904
                ]
            }, 
            "type": "Feature", 
            "properties": {
                "name": "בית ברל"
            }
        }, 
        {
            "geometry": {
                "type": "Point", 
                "coordinates": [
                    34.76431, 
                    31.75362
                ]
            }, 
            "type": "Feature", 
            "properties": {
                "name": "תלמי יחיאל"
            }
        }, 
        {
            "geometry": {
                "type": "Point", 
                "coordinates": [
                    34.597147, 
                    31.648124
                ]
            }, 
            "type": "Feature", 
            "properties": {
                "name": "בת הדר"
            }
        }, 
        {
            "geometry": {
                "type": "Point", 
                "coordinates": [
                    35.60936, 
                    33.239348
                ]
            }, 
            "type": "Feature", 
            "properties": {
                "name": "מעין ברוך"
            }
        }, 
        {
            "geometry": {
                "type": "Point", 
                "coordinates": [
                    35.368515, 
                    32.69411900000001
                ]
            }, 
            "type": "Feature", 
            "properties": {
                "name": "דבוריה"
            }
        }, 
        {
            "geometry": {
                "type": "Point", 
                "coordinates": [
                    35.114225, 
                    32.491872
                ]
            }, 
            "type": "Feature", 
            "properties": {
                "name": "עין א-סהלה"
            }
        }, 
        {
            "geometry": {
                "type": "Point", 
                "coordinates": [
                    35.133592, 
                    31.926248
                ]
            }, 
            "type": "Feature", 
            "properties": {
                "name": "דולב"
            }
        }, 
        {
            "geometry": {
                "type": "Point", 
                "coordinates": [
                    34.939654, 
                    31.805583
                ]
            }, 
            "type": "Feature", 
            "properties": {
                "name": "גיזו"
            }
        }, 
        {
            "geometry": {
                "type": "Point", 
                "coordinates": [
                    35.120843, 
                    31.809911
                ]
            }, 
            "type": "Feature", 
            "properties": {
                "name": "קרית ענבים"
            }
        }, 
        {
            "geometry": {
                "type": "Point", 
                "coordinates": [
                    34.871231, 
                    32.350707
                ]
            }, 
            "type": "Feature", 
            "properties": {
                "name": "אביחיל"
            }
        }, 
        {
            "geometry": {
                "type": "Point", 
                "coordinates": [
                    34.917148, 
                    32.403525
                ]
            }, 
            "type": "Feature", 
            "properties": {
                "name": "חרב לאת"
            }
        }, 
        {
            "geometry": {
                "type": "Point", 
                "coordinates": [
                    35.127781, 
                    32.838315
                ]
            }, 
            "type": "Feature", 
            "properties": {
                "name": "אפק"
            }
        }, 
        {
            "geometry": {
                "type": "Point", 
                "coordinates": [
                    35.037856, 
                    31.918166
                ]
            }, 
            "type": "Feature", 
            "properties": {
                "name": "מנורה"
            }
        }, 
        {
            "geometry": {
                "type": "Point", 
                "coordinates": [
                    35.263855, 
                    32.552894
                ]
            }, 
            "type": "Feature", 
            "properties": {
                "name": "דבורה"
            }
        }, 
        {
            "geometry": {
                "type": "Point", 
                "coordinates": [
                    35.069206, 
                    32.164638
                ]
            }, 
            "type": "Feature", 
            "properties": {
                "name": "דן"
            }
        }, 
        {
            "geometry": {
                "type": "Point", 
                "coordinates": [
                    34.831456, 
                    32.044431
                ]
            }, 
            "type": "Feature", 
            "properties": {
                "name": "רמת אפעל"
            }
        }, 
        {
            "geometry": {
                "type": "Point", 
                "coordinates": [
                    35.083006, 
                    32.982078
                ]
            }, 
            "type": "Feature", 
            "properties": {
                "name": "שבי ציון"
            }
        }, 
        {
            "geometry": {
                "type": "Point", 
                "coordinates": [
                    35.595604, 
                    33.159784
                ]
            }, 
            "type": "Feature", 
            "properties": {
                "name": "נאות מרדכי"
            }
        }, 
        {
            "geometry": {
                "type": "Point", 
                "coordinates": [
                    35.098936, 
                    32.983651
                ]
            }, 
            "type": "Feature", 
            "properties": {
                "name": "מזרעה"
            }
        }, 
        {
            "geometry": {
                "type": "Point", 
                "coordinates": [
                    35.155702, 
                    32.971645
                ]
            }, 
            "type": "Feature", 
            "properties": {
                "name": "אשרת"
            }
        }, 
        {
            "geometry": {
                "type": "Point", 
                "coordinates": [
                    34.999174, 
                    29.904092
                ]
            }, 
            "type": "Feature", 
            "properties": {
                "name": "שחרות"
            }
        }, 
        {
            "geometry": {
                "type": "Point", 
                "coordinates": [
                    34.875515, 
                    32.167578
                ]
            }, 
            "type": "Feature", 
            "properties": {
                "name": "גבעת ח\"ן"
            }
        }, 
        {
            "geometry": {
                "type": "Point", 
                "coordinates": [
                    35.145946, 
                    33.072608
                ]
            }, 
            "type": "Feature", 
            "properties": {
                "name": "שלומי"
            }
        }, 
        {
            "geometry": {
                "type": "Point", 
                "coordinates": [
                    34.774906, 
                    31.921286
                ]
            }, 
            "type": "Feature", 
            "properties": {
                "name": "בית עובד"
            }
        }, 
        {
            "geometry": {
                "type": "Point", 
                "coordinates": [
                    35.43214, 
                    31.826191
                ]
            }, 
            "type": "Feature", 
            "properties": {
                "name": "ורד יריחו"
            }
        }, 
        {
            "geometry": {
                "type": "Point", 
                "coordinates": [
                    35.530975, 
                    32.795858
                ]
            }, 
            "type": "Feature", 
            "properties": {
                "name": "טבריה"
            }
        }, 
        {
            "geometry": {
                "type": "Point", 
                "coordinates": [
                    34.847338, 
                    31.915666
                ]
            }, 
            "type": "Feature", 
            "properties": {
                "name": "ישרש"
            }
        }, 
        {
            "geometry": {
                "type": "Point", 
                "coordinates": [
                    35.324422, 
                    32.522448
                ]
            }, 
            "type": "Feature", 
            "properties": {
                "name": "צנדלה"
            }
        }, 
        {
            "geometry": {
                "type": "Point", 
                "coordinates": [
                    35.12529, 
                    31.66779
                ]
            }, 
            "type": "Feature", 
            "properties": {
                "name": "ראש צורים"
            }
        }, 
        {
            "geometry": {
                "type": "Point", 
                "coordinates": [
                    35.035055, 
                    31.851781
                ]
            }, 
            "type": "Feature", 
            "properties": {
                "name": "נווה דקלים"
            }
        }, 
        {
            "geometry": {
                "type": "Point", 
                "coordinates": [
                    35.048483, 
                    31.964281
                ]
            }, 
            "type": "Feature", 
            "properties": {
                "name": "תדהר"
            }
        }, 
        {
            "geometry": {
                "type": "Point", 
                "coordinates": [
                    34.705167, 
                    31.497377
                ]
            }, 
            "type": "Feature", 
            "properties": {
                "name": "רוחמה"
            }
        }, 
        {
            "geometry": {
                "type": "Point", 
                "coordinates": [
                    34.578086, 
                    31.448534
                ]
            }, 
            "type": "Feature", 
            "properties": {
                "name": "תקומה"
            }
        }, 
        {
            "geometry": {
                "type": "Point", 
                "coordinates": [
                    35.403901, 
                    32.071303
                ]
            }, 
            "type": "Feature", 
            "properties": {
                "name": "מעלה אפרים"
            }
        }, 
        {
            "geometry": {
                "type": "Point", 
                "coordinates": [
                    34.604398, 
                    31.404818
                ]
            }, 
            "type": "Feature", 
            "properties": {
                "name": "שרשרת"
            }
        }, 
        {
            "geometry": {
                "type": "Point", 
                "coordinates": [
                    35.141317, 
                    32.697559
                ]
            }, 
            "type": "Feature", 
            "properties": {
                "name": "שדה יעקב"
            }
        }, 
        {
            "geometry": {
                "type": "Point", 
                "coordinates": [
                    35.443754, 
                    32.043491
                ]
            }, 
            "type": "Feature", 
            "properties": {
                "name": "פצאל"
            }
        }, 
        {
            "geometry": {
                "type": "Point", 
                "coordinates": [
                    35.010398, 
                    31.890266
                ]
            }, 
            "type": "Feature", 
            "properties": {
                "name": "מודיעין-מכבים-רעות"
            }
        }, 
        {
            "geometry": {
                "type": "Point", 
                "coordinates": [
                    35.17203, 
                    32.73094400000001
                ]
            }, 
            "type": "Feature", 
            "properties": {
                "name": "אלוני אבא"
            }
        }, 
        {
            "geometry": {
                "type": "Point", 
                "coordinates": [
                    35.143401, 
                    32.72145800000001
                ]
            }, 
            "type": "Feature", 
            "properties": {
                "name": "אלונים"
            }
        }, 
        {
            "geometry": {
                "type": "Point", 
                "coordinates": [
                    34.54549799999999, 
                    31.449949
                ]
            }, 
            "type": "Feature", 
            "properties": {
                "name": "שובה"
            }
        }, 
        {
            "geometry": {
                "type": "Point", 
                "coordinates": [
                    35.038396, 
                    31.848843
                ]
            }, 
            "type": "Feature", 
            "properties": {
                "name": "ניסנית"
            }
        }, 
        {
            "geometry": {
                "type": "Point", 
                "coordinates": [
                    34.638073, 
                    31.692155
                ]
            }, 
            "type": "Feature", 
            "properties": {
                "name": "ניר ישראל"
            }
        }, 
        {
            "geometry": {
                "type": "Point", 
                "coordinates": [
                    34.745816, 
                    31.413733
                ]
            }, 
            "type": "Feature", 
            "properties": {
                "name": "שובל"
            }
        }, 
        {
            "geometry": {
                "type": "Point", 
                "coordinates": [
                    35.125095, 
                    32.498075
                ]
            }, 
            "type": "Feature", 
            "properties": {
                "name": "אל-עריאן"
            }
        }, 
        {
            "geometry": {
                "type": "Point", 
                "coordinates": [
                    35.349401, 
                    32.630985
                ]
            }, 
            "type": "Feature", 
            "properties": {
                "name": "ניין"
            }
        }, 
        {
            "geometry": {
                "type": "Point", 
                "coordinates": [
                    34.900364, 
                    32.180823
                ]
            }, 
            "type": "Feature", 
            "properties": {
                "name": "חצרות כ\"ח"
            }
        }, 
        {
            "geometry": {
                "type": "Point", 
                "coordinates": [
                    35.343605, 
                    32.62249
                ]
            }, 
            "type": "Feature", 
            "properties": {
                "name": "דחי"
            }
        }, 
        {
            "geometry": {
                "type": "Point", 
                "coordinates": [
                    35.196091, 
                    32.690806
                ]
            }, 
            "type": "Feature", 
            "properties": {
                "name": "נהלל"
            }
        }, 
        {
            "geometry": {
                "type": "Point", 
                "coordinates": [
                    34.871313, 
                    31.379362
                ]
            }, 
            "type": "Feature", 
            "properties": {
                "name": "להב"
            }
        }, 
        {
            "geometry": {
                "type": "Point", 
                "coordinates": [
                    34.777821, 
                    32.066157
                ]
            }, 
            "type": "Feature", 
            "properties": {
                "name": "תל אביב - יפו"
            }
        }, 
        {
            "geometry": {
                "type": "Point", 
                "coordinates": [
                    35.036492, 
                    30.039792
                ]
            }, 
            "type": "Feature", 
            "properties": {
                "name": "נווה חריף"
            }
        }, 
        {
            "geometry": {
                "type": "Point", 
                "coordinates": [
                    35.29522, 
                    33.075142
                ]
            }, 
            "type": "Feature", 
            "properties": {
                "name": "אבן מנחם"
            }
        }, 
        {
            "geometry": {
                "type": "Point", 
                "coordinates": [
                    34.999049, 
                    32.465006
                ]
            }, 
            "type": "Feature", 
            "properties": {
                "name": "גן השומרון"
            }
        }, 
        {
            "geometry": {
                "type": "Point", 
                "coordinates": [
                    34.871328, 
                    32.18478
                ]
            }, 
            "type": "Feature", 
            "properties": {
                "name": "רעננה"
            }
        }, 
        {
            "geometry": {
                "type": "Point", 
                "coordinates": [
                    35.58277, 
                    32.664807
                ]
            }, 
            "type": "Feature", 
            "properties": {
                "name": "אשדות יעקב)מאוחד("
            }
        }, 
        {
            "geometry": {
                "type": "Point", 
                "coordinates": [
                    35.697899, 
                    32.870411
                ]
            }, 
            "type": "Feature", 
            "properties": {
                "name": "כנף"
            }
        }, 
        {
            "geometry": {
                "type": "Point", 
                "coordinates": [
                    34.540415, 
                    31.602694
                ]
            }, 
            "type": "Feature", 
            "properties": {
                "name": "כרמיה"
            }
        }, 
        {
            "geometry": {
                "type": "Point", 
                "coordinates": [
                    35.1681583, 
                    32.766925
                ]
            }, 
            "type": "Feature", 
            "properties": {
                "name": "סוואעד חמיירה"
            }
        }, 
        {
            "geometry": {
                "type": "Point", 
                "coordinates": [
                    34.91788, 
                    31.333463
                ]
            }, 
            "type": "Feature", 
            "properties": {
                "name": "כרמים"
            }
        }, 
        {
            "geometry": {
                "type": "Point", 
                "coordinates": [
                    34.678195, 
                    31.758436
                ]
            }, 
            "type": "Feature", 
            "properties": {
                "name": "שדה עוזיהו"
            }
        }, 
        {
            "geometry": {
                "type": "Point", 
                "coordinates": [
                    35.143294, 
                    31.676318
                ]
            }, 
            "type": "Feature", 
            "properties": {
                "name": "נווה דניאל"
            }
        }, 
        {
            "geometry": {
                "type": "Point", 
                "coordinates": [
                    34.941129, 
                    31.92721599999999
                ]
            }, 
            "type": "Feature", 
            "properties": {
                "name": "גמזו"
            }
        }, 
        {
            "geometry": {
                "type": "Point", 
                "coordinates": [
                    35.249127, 
                    32.967232
                ]
            }, 
            "type": "Feature", 
            "properties": {
                "name": "גיתה"
            }
        }, 
        {
            "geometry": {
                "type": "Point", 
                "coordinates": [
                    35.115235, 
                    31.64948499999999
                ]
            }, 
            "type": "Feature", 
            "properties": {
                "name": "כפר עציון"
            }
        }, 
        {
            "geometry": {
                "type": "Point", 
                "coordinates": [
                    34.918462, 
                    32.256607
                ]
            }, 
            "type": "Feature", 
            "properties": {
                "name": "תל מונד"
            }
        }, 
        {
            "geometry": {
                "type": "Point", 
                "coordinates": [
                    34.78503, 
                    31.004041
                ]
            }, 
            "type": "Feature", 
            "properties": {
                "name": "משאבי שדה"
            }
        }, 
        {
            "geometry": {
                "type": "Point", 
                "coordinates": [
                    35.292418, 
                    32.91467
                ]
            }, 
            "type": "Feature", 
            "properties": {
                "name": "כרמיאל"
            }
        }, 
        {
            "geometry": {
                "type": "Point", 
                "coordinates": [
                    34.787386, 
                    32.015832
                ]
            }, 
            "type": "Feature", 
            "properties": {
                "name": "חולון"
            }
        }, 
        {
            "geometry": {
                "type": "Point", 
                "coordinates": [
                    34.363752, 
                    31.199957
                ]
            }, 
            "type": "Feature", 
            "properties": {
                "name": "תלמי יוסף"
            }
        }, 
        {
            "geometry": {
                "type": "Point", 
                "coordinates": [
                    34.835228, 
                    32.084931
                ]
            }, 
            "type": "Feature", 
            "properties": {
                "name": "בני ברק"
            }
        }, 
        {
            "geometry": {
                "type": "Point", 
                "coordinates": [
                    35.26686, 
                    32.071176
                ]
            }, 
            "type": "Feature", 
            "properties": {
                "name": "עלי"
            }
        }, 
        {
            "geometry": {
                "type": "Point", 
                "coordinates": [
                    35.153536, 
                    31.777866
                ]
            }, 
            "type": "Feature", 
            "properties": {
                "name": "עין כרם-בי\"ס חקלאי"
            }
        }, 
        {
            "geometry": {
                "type": "Point", 
                "coordinates": [
                    34.920981, 
                    31.95359999999999
                ]
            }, 
            "type": "Feature", 
            "properties": {
                "name": "בן שמן (כפר הנוער)"
            }
        }, 
        {
            "geometry": {
                "type": "Point", 
                "coordinates": [
                    35.316521, 
                    32.934674
                ]
            }, 
            "type": "Feature", 
            "properties": {
                "name": "נחף"
            }
        }, 
        {
            "geometry": {
                "type": "Point", 
                "coordinates": [
                    34.537182, 
                    31.4314
                ]
            }, 
            "type": "Feature", 
            "properties": {
                "name": "כפר מימון"
            }
        }, 
        {
            "geometry": {
                "type": "Point", 
                "coordinates": [
                    34.644824, 
                    31.438054
                ]
            }, 
            "type": "Feature", 
            "properties": {
                "name": "תלמי ביל\"ו"
            }
        }, 
        {
            "geometry": {
                "type": "Point", 
                "coordinates": [
                    35.421552, 
                    32.64737
                ]
            }, 
            "type": "Feature", 
            "properties": {
                "name": "כפר מצר"
            }
        }, 
        {
            "geometry": {
                "type": "Point", 
                "coordinates": [
                    34.899836, 
                    32.044362
                ]
            }, 
            "type": "Feature", 
            "properties": {
                "name": "מגשימים"
            }
        }, 
        {
            "geometry": {
                "type": "Point", 
                "coordinates": [
                    35.177705, 
                    31.861803
                ]
            }, 
            "type": "Feature", 
            "properties": {
                "name": "חבר"
            }
        }, 
        {
            "geometry": {
                "type": "Point", 
                "coordinates": [
                    35.471566, 
                    32.898885
                ]
            }, 
            "type": "Feature", 
            "properties": {
                "name": "קדרים"
            }
        }, 
        {
            "geometry": {
                "type": "Point", 
                "coordinates": [
                    35.167479, 
                    31.85677099999999
                ]
            }, 
            "type": "Feature", 
            "properties": {
                "name": "מצפה"
            }
        }, 
        {
            "geometry": {
                "type": "Point", 
                "coordinates": [
                    34.873588, 
                    32.272007
                ]
            }, 
            "type": "Feature", 
            "properties": {
                "name": "כפר נטר"
            }
        }, 
        {
            "geometry": {
                "type": "Point", 
                "coordinates": [
                    34.52097, 
                    31.607202
                ]
            }, 
            "type": "Feature", 
            "properties": {
                "name": "זיקים"
            }
        }, 
        {
            "geometry": {
                "type": "Point", 
                "coordinates": [
                    35.16975, 
                    31.836804
                ]
            }, 
            "type": "Feature", 
            "properties": {
                "name": "נופך"
            }
        }, 
        {
            "geometry": {
                "type": "Point", 
                "coordinates": [
                    35.13074599999999, 
                    32.991184
                ]
            }, 
            "type": "Feature", 
            "properties": {
                "name": "נתיב השיירה"
            }
        }, 
        {
            "geometry": {
                "type": "Point", 
                "coordinates": [
                    35.003912, 
                    31.767105
                ]
            }, 
            "type": "Feature", 
            "properties": {
                "name": "נחם"
            }
        }, 
        {
            "geometry": {
                "type": "Point", 
                "coordinates": [
                    34.944709, 
                    31.708811
                ]
            }, 
            "type": "Feature", 
            "properties": {
                "name": "זכריה"
            }
        }, 
        {
            "geometry": {
                "type": "Point", 
                "coordinates": [
                    34.798903, 
                    31.87877599999999
                ]
            }, 
            "type": "Feature", 
            "properties": {
                "name": "גן שלמה"
            }
        }, 
        {
            "geometry": {
                "type": "Point", 
                "coordinates": [
                    35.79547, 
                    32.939659
                ]
            }, 
            "type": "Feature", 
            "properties": {
                "name": "יונתן"
            }
        }, 
        {
            "geometry": {
                "type": "Point", 
                "coordinates": [
                    35.113456, 
                    33.086089
                ]
            }, 
            "type": "Feature", 
            "properties": {
                "name": "כפר ראש הנקרה"
            }
        }, 
        {
            "geometry": {
                "type": "Point", 
                "coordinates": [
                    34.93298, 
                    32.39674400000001
                ]
            }, 
            "type": "Feature", 
            "properties": {
                "name": "גבעת חיים (איחוד)"
            }
        }, 
        {
            "geometry": {
                "type": "Point", 
                "coordinates": [
                    35.245677, 
                    32.928494
                ]
            }, 
            "type": "Feature", 
            "properties": {
                "name": "תובל"
            }
        }, 
        {
            "geometry": {
                "type": "Point", 
                "coordinates": [
                    34.836652, 
                    32.048748
                ]
            }, 
            "type": "Feature", 
            "properties": {
                "name": "אפעל-מרכז סמינריוני"
            }
        }, 
        {
            "geometry": {
                "type": "Point", 
                "coordinates": [
                    35.365254, 
                    32.862315
                ]
            }, 
            "type": "Feature", 
            "properties": {
                "name": "דייר חנא"
            }
        }, 
        {
            "geometry": {
                "type": "Point", 
                "coordinates": [
                    34.7834, 
                    30.8522972
                ]
            }, 
            "type": "Feature", 
            "properties": {
                "name": "מדרשת בן גוריון"
            }
        }, 
        {
            "geometry": {
                "type": "Point", 
                "coordinates": [
                    35.4, 
                    32.6833333
                ]
            }, 
            "type": "Feature", 
            "properties": {
                "name": "שבלי-אום אל-גנם"
            }
        }, 
        {
            "geometry": {
                "type": "Point", 
                "coordinates": [
                    35.511573, 
                    32.89046400000001
                ]
            }, 
            "type": "Feature", 
            "properties": {
                "name": "כחל"
            }
        }, 
        {
            "geometry": {
                "type": "Point", 
                "coordinates": [
                    34.584022, 
                    31.674766
                ]
            }, 
            "type": "Feature", 
            "properties": {
                "name": "סדום"
            }
        }, 
        {
            "geometry": {
                "type": "Point", 
                "coordinates": [
                    35.641409, 
                    32.927513
                ]
            }, 
            "type": "Feature", 
            "properties": {
                "name": "חד-נס"
            }
        }, 
        {
            "geometry": {
                "type": "Point", 
                "coordinates": [
                    35.545565, 
                    32.719845
                ]
            }, 
            "type": "Feature", 
            "properties": {
                "name": "פוריה - כפר עבודה"
            }
        }, 
        {
            "geometry": {
                "type": "Point", 
                "coordinates": [
                    34.800428, 
                    31.610981
                ]
            }, 
            "type": "Feature", 
            "properties": {
                "name": "שדה משה"
            }
        }, 
        {
            "geometry": {
                "type": "Point", 
                "coordinates": [
                    34.984902, 
                    31.148642
                ]
            }, 
            "type": "Feature", 
            "properties": {
                "name": "ערוער"
            }
        }, 
        {
            "geometry": {
                "type": "Point", 
                "coordinates": [
                    35.740576, 
                    33.262019
                ]
            }, 
            "type": "Feature", 
            "properties": {
                "name": "נווה אטי\"ב"
            }
        }, 
        {
            "geometry": {
                "type": "Point", 
                "coordinates": [
                    35.503097, 
                    32.978107
                ]
            }, 
            "type": "Feature", 
            "properties": {
                "name": "ביריה"
            }
        }, 
        {
            "geometry": {
                "type": "Point", 
                "coordinates": [
                    34.630087, 
                    31.477455
                ]
            }, 
            "type": "Feature", 
            "properties": {
                "name": "ניר משה"
            }
        }, 
        {
            "geometry": {
                "type": "Point", 
                "coordinates": [
                    34.920981, 
                    31.95359999999999
                ]
            }, 
            "type": "Feature", 
            "properties": {
                "name": "בן שמן-מושב"
            }
        }, 
        {
            "geometry": {
                "type": "Point", 
                "coordinates": [
                    34.823125, 
                    32.187122
                ]
            }, 
            "type": "Feature", 
            "properties": {
                "name": "כפר שמריהו"
            }
        }, 
        {
            "geometry": {
                "type": "Point", 
                "coordinates": [
                    35.065977, 
                    31.962593
                ]
            }, 
            "type": "Feature", 
            "properties": {
                "name": "נעלה"
            }
        }, 
        {
            "geometry": {
                "type": "Point", 
                "coordinates": [
                    34.920684, 
                    31.721352
                ]
            }, 
            "type": "Feature", 
            "properties": {
                "name": "שדות מיכה"
            }
        }, 
        {
            "geometry": {
                "type": "Point", 
                "coordinates": [
                    35.439353, 
                    32.550873
                ]
            }, 
            "type": "Feature", 
            "properties": {
                "name": "בית השיטה"
            }
        }, 
        {
            "geometry": {
                "type": "Point", 
                "coordinates": [
                    35.395444, 
                    32.100272
                ]
            }, 
            "type": "Feature", 
            "properties": {
                "name": "גיתית"
            }
        }, 
        {
            "geometry": {
                "type": "Point", 
                "coordinates": [
                    34.9459, 
                    32.287339
                ]
            }, 
            "type": "Feature", 
            "properties": {
                "name": "צורן-קדימה"
            }
        }, 
        {
            "geometry": {
                "type": "Point", 
                "coordinates": [
                    35.008683, 
                    32.172161
                ]
            }, 
            "type": "Feature", 
            "properties": {
                "name": "רביד"
            }
        }, 
        {
            "geometry": {
                "type": "Point", 
                "coordinates": [
                    34.811274, 
                    31.89277199999999
                ]
            }, 
            "type": "Feature", 
            "properties": {
                "name": "רחובות"
            }
        }, 
        {
            "geometry": {
                "type": "Point", 
                "coordinates": [
                    35.069745, 
                    32.165405
                ]
            }, 
            "type": "Feature", 
            "properties": {
                "name": "מעלה שומרון"
            }
        }, 
        {
            "geometry": {
                "type": "Point", 
                "coordinates": [
                    34.842593, 
                    31.302815
                ]
            }, 
            "type": "Feature", 
            "properties": {
                "name": "אבו עבדון"
            }
        }, 
        {
            "geometry": {
                "type": "Point", 
                "coordinates": [
                    34.7680556, 
                    31.9158333
                ]
            }, 
            "type": "Feature", 
            "properties": {
                "name": "עיינות"
            }
        }, 
        {
            "geometry": {
                "type": "Point", 
                "coordinates": [
                    34.953678, 
                    32.677911
                ]
            }, 
            "type": "Feature", 
            "properties": {
                "name": "עין כרמל"
            }
        }, 
        {
            "geometry": {
                "type": "Point", 
                "coordinates": [
                    34.922251, 
                    32.613089
                ]
            }, 
            "type": "Feature", 
            "properties": {
                "name": "נחשולים"
            }
        }, 
        {
            "geometry": {
                "type": "Point", 
                "coordinates": [
                    35.173361, 
                    32.102299
                ]
            }, 
            "type": "Feature", 
            "properties": {
                "name": "גנים"
            }
        }, 
        {
            "geometry": {
                "type": "Point", 
                "coordinates": [
                    34.824413, 
                    32.228476
                ]
            }, 
            "type": "Feature", 
            "properties": {
                "name": "געש"
            }
        }, 
        {
            "geometry": {
                "type": "Point", 
                "coordinates": [
                    35.354524, 
                    32.933935
                ]
            }, 
            "type": "Feature", 
            "properties": {
                "name": "שזור"
            }
        }, 
        {
            "geometry": {
                "type": "Point", 
                "coordinates": [
                    34.755014, 
                    31.671176
                ]
            }, 
            "type": "Feature", 
            "properties": {
                "name": "ניר בנים"
            }
        }, 
        {
            "geometry": {
                "type": "Point", 
                "coordinates": [
                    34.84028, 
                    32.137792
                ]
            }, 
            "type": "Feature", 
            "properties": {
                "name": "רמת השרון"
            }
        }, 
        {
            "geometry": {
                "type": "Point", 
                "coordinates": [
                    34.746997, 
                    31.730201
                ]
            }, 
            "type": "Feature", 
            "properties": {
                "name": "קרית מלאכי"
            }
        }, 
        {
            "geometry": {
                "type": "Point", 
                "coordinates": [
                    35.440172, 
                    33.013122
                ]
            }, 
            "type": "Feature", 
            "properties": {
                "name": "ספסופה"
            }
        }, 
        {
            "geometry": {
                "type": "Point", 
                "coordinates": [
                    35.340496, 
                    31.935381
                ]
            }, 
            "type": "Feature", 
            "properties": {
                "name": "רימונים"
            }
        }, 
        {
            "geometry": {
                "type": "Point", 
                "coordinates": [
                    35.23752899999999, 
                    32.563148
                ]
            }, 
            "type": "Feature", 
            "properties": {
                "name": "מלאה"
            }
        }, 
        {
            "geometry": {
                "type": "Point", 
                "coordinates": [
                    35.448192, 
                    32.997703
                ]
            }, 
            "type": "Feature", 
            "properties": {
                "name": "בר יוחאי"
            }
        }, 
        {
            "geometry": {
                "type": "Point", 
                "coordinates": [
                    35.111238, 
                    31.819022
                ]
            }, 
            "type": "Feature", 
            "properties": {
                "name": "מעלה החמישה"
            }
        }, 
        {
            "geometry": {
                "type": "Point", 
                "coordinates": [
                    34.84756, 
                    32.095909
                ]
            }, 
            "type": "Feature", 
            "properties": {
                "name": "נווה אפעל"
            }
        }, 
        {
            "geometry": {
                "type": "Point", 
                "coordinates": [
                    34.87294, 
                    31.931565
                ]
            }, 
            "type": "Feature", 
            "properties": {
                "name": "רמלה"
            }
        }, 
        {
            "geometry": {
                "type": "Point", 
                "coordinates": [
                    34.835081, 
                    31.732076
                ]
            }, 
            "type": "Feature", 
            "properties": {
                "name": "כפר מנחם"
            }
        }, 
        {
            "geometry": {
                "type": "Point", 
                "coordinates": [
                    35.378127, 
                    30.933367
                ]
            }, 
            "type": "Feature", 
            "properties": {
                "name": "נאות הכיכר"
            }
        }, 
        {
            "geometry": {
                "type": "Point", 
                "coordinates": [
                    34.777274, 
                    31.65615799999999
                ]
            }, 
            "type": "Feature", 
            "properties": {
                "name": "מנוחה"
            }
        }, 
        {
            "geometry": {
                "type": "Point", 
                "coordinates": [
                    34.982524, 
                    31.687183
                ]
            }, 
            "type": "Feature", 
            "properties": {
                "name": "נתיב הל\"ה"
            }
        }, 
        {
            "geometry": {
                "type": "Point", 
                "coordinates": [
                    35.33027, 
                    32.235924
                ]
            }, 
            "type": "Feature", 
            "properties": {
                "name": "שניר"
            }
        }, 
        {
            "geometry": {
                "type": "Point", 
                "coordinates": [
                    35.436411, 
                    32.696244
                ]
            }, 
            "type": "Feature", 
            "properties": {
                "name": "שדמות דבורה"
            }
        }, 
        {
            "geometry": {
                "type": "Point", 
                "coordinates": [
                    35.018823, 
                    31.681995
                ]
            }, 
            "type": "Feature", 
            "properties": {
                "name": "אביעזר"
            }
        }, 
        {
            "geometry": {
                "type": "Point", 
                "coordinates": [
                    35.159031, 
                    31.848895
                ]
            }, 
            "type": "Feature", 
            "properties": {
                "name": "גבעון החדשה"
            }
        }, 
        {
            "geometry": {
                "type": "Point", 
                "coordinates": [
                    35.125489, 
                    32.282977
                ]
            }, 
            "type": "Feature", 
            "properties": {
                "name": "קטיף"
            }
        }, 
        {
            "geometry": {
                "type": "Point", 
                "coordinates": [
                    35.36925799999999, 
                    32.845695
                ]
            }, 
            "type": "Feature", 
            "properties": {
                "name": "הררית"
            }
        }, 
        {
            "geometry": {
                "type": "Point", 
                "coordinates": [
                    35.198618, 
                    31.814145
                ]
            }, 
            "type": "Feature", 
            "properties": {
                "name": "קדימה"
            }
        }, 
        {
            "geometry": {
                "type": "Point", 
                "coordinates": [
                    34.976069, 
                    32.476328
                ]
            }, 
            "type": "Feature", 
            "properties": {
                "name": "פרדס חנה-כרכור"
            }
        }, 
        {
            "geometry": {
                "type": "Point", 
                "coordinates": [
                    35.079306, 
                    32.503814
                ]
            }, 
            "type": "Feature", 
            "properties": {
                "name": "ערערה-ערה"
            }
        }, 
        {
            "geometry": {
                "type": "Point", 
                "coordinates": [
                    34.801899, 
                    30.61020199999999
                ]
            }, 
            "type": "Feature", 
            "properties": {
                "name": "מצפה רמון"
            }
        }, 
        {
            "geometry": {
                "type": "Point", 
                "coordinates": [
                    34.874079, 
                    32.386081
                ]
            }, 
            "type": "Feature", 
            "properties": {
                "name": "חופית"
            }
        }, 
        {
            "geometry": {
                "type": "Point", 
                "coordinates": [
                    35.58277, 
                    32.664807
                ]
            }, 
            "type": "Feature", 
            "properties": {
                "name": "אשדות יעקב  (מאוחד)"
            }
        }, 
        {
            "geometry": {
                "type": "Point", 
                "coordinates": [
                    35.069581, 
                    31.83127499999999
                ]
            }, 
            "type": "Feature", 
            "properties": {
                "name": "נטף"
            }
        }, 
        {
            "geometry": {
                "type": "Point", 
                "coordinates": [
                    34.951926, 
                    29.557668
                ]
            }, 
            "type": "Feature", 
            "properties": {
                "name": "אילת"
            }
        }, 
        {
            "geometry": {
                "type": "Point", 
                "coordinates": [
                    35.0147222, 
                    32.4497222
                ]
            }, 
            "type": "Feature", 
            "properties": {
                "name": "שער מנשה"
            }
        }, 
        {
            "geometry": {
                "type": "Point", 
                "coordinates": [
                    35.497337, 
                    32.497102
                ]
            }, 
            "type": "Feature", 
            "properties": {
                "name": "בית שאן"
            }
        }, 
        {
            "geometry": {
                "type": "Point", 
                "coordinates": [
                    34.87658, 
                    32.045588
                ]
            }, 
            "type": "Feature", 
            "properties": {
                "name": "סביון"
            }
        }, 
        {
            "geometry": {
                "type": "Point", 
                "coordinates": [
                    34.771262, 
                    30.99151
                ]
            }, 
            "type": "Feature", 
            "properties": {
                "name": "טללים"
            }
        }, 
        {
            "geometry": {
                "type": "Point", 
                "coordinates": [
                    34.984306, 
                    31.870234
                ]
            }, 
            "type": "Feature", 
            "properties": {
                "name": "שעלבים"
            }
        }, 
        {
            "geometry": {
                "type": "Point", 
                "coordinates": [
                    34.421519, 
                    30.886467
                ]
            }, 
            "type": "Feature", 
            "properties": {
                "name": "ניצנה"
            }
        }, 
        {
            "geometry": {
                "type": "Point", 
                "coordinates": [
                    35.374072, 
                    30.943593
                ]
            }, 
            "type": "Feature", 
            "properties": {
                "name": "עין תמר"
            }
        }, 
        {
            "geometry": {
                "type": "Point", 
                "coordinates": [
                    35.008914, 
                    32.197317
                ]
            }, 
            "type": "Feature", 
            "properties": {
                "name": "צופין"
            }
        }, 
        {
            "geometry": {
                "type": "Point", 
                "coordinates": [
                    35.303548, 
                    32.699634
                ]
            }, 
            "type": "Feature", 
            "properties": {
                "name": "נצרת עלית"
            }
        }, 
        {
            "geometry": {
                "type": "Point", 
                "coordinates": [
                    35.609246, 
                    33.05285
                ]
            }, 
            "type": "Feature", 
            "properties": {
                "name": "חולתה"
            }
        }, 
        {
            "geometry": {
                "type": "Point", 
                "coordinates": [
                    34.952004, 
                    31.103114
                ]
            }, 
            "type": "Feature", 
            "properties": {
                "name": "אבו קורינאת (שבט)"
            }
        }, 
        {
            "geometry": {
                "type": "Point", 
                "coordinates": [
                    35.009464, 
                    31.801448
                ]
            }, 
            "type": "Feature", 
            "properties": {
                "name": "מסילת-ציון"
            }
        }, 
        {
            "geometry": {
                "type": "Point", 
                "coordinates": [
                    34.770573, 
                    31.780094
                ]
            }, 
            "type": "Feature", 
            "properties": {
                "name": "חצב"
            }
        }, 
        {
            "geometry": {
                "type": "Point", 
                "coordinates": [
                    35.685968, 
                    32.88825500000001
                ]
            }, 
            "type": "Feature", 
            "properties": {
                "name": "מעלה גמלא"
            }
        }, 
        {
            "geometry": {
                "type": "Point", 
                "coordinates": [
                    35.136038, 
                    32.160687
                ]
            }, 
            "type": "Feature", 
            "properties": {
                "name": "עמנואל"
            }
        }, 
        {
            "geometry": {
                "type": "Point", 
                "coordinates": [
                    35.173871, 
                    32.420771
                ]
            }, 
            "type": "Feature", 
            "properties": {
                "name": "מבוא דותן"
            }
        }, 
        {
            "geometry": {
                "type": "Point", 
                "coordinates": [
                    35.540523, 
                    32.930353
                ]
            }, 
            "type": "Feature", 
            "properties": {
                "name": "עמיעד"
            }
        }, 
        {
            "geometry": {
                "type": "Point", 
                "coordinates": [
                    35.048172, 
                    31.774261
                ]
            }, 
            "type": "Feature", 
            "properties": {
                "name": "כסלון"
            }
        }, 
        {
            "geometry": {
                "type": "Point", 
                "coordinates": [
                    34.407489, 
                    31.242422
                ]
            }, 
            "type": "Feature", 
            "properties": {
                "name": "מבטחים"
            }
        }, 
        {
            "geometry": {
                "type": "Point", 
                "coordinates": [
                    35.439802, 
                    32.018586
                ]
            }, 
            "type": "Feature", 
            "properties": {
                "name": "תומר"
            }
        }, 
        {
            "geometry": {
                "type": "Point", 
                "coordinates": [
                    35.213711, 
                    31.768318
                ]
            }, 
            "type": "Feature", 
            "properties": {
                "name": "ירושלים"
            }
        }, 
        {
            "geometry": {
                "type": "Point", 
                "coordinates": [
                    34.808873, 
                    32.072175
                ]
            }, 
            "type": "Feature", 
            "properties": {
                "name": "גבעתיים"
            }
        }, 
        {
            "geometry": {
                "type": "Point", 
                "coordinates": [
                    35.278499, 
                    30.767941
                ]
            }, 
            "type": "Feature", 
            "properties": {
                "name": "חצבה"
            }
        }, 
        {
            "geometry": {
                "type": "Point", 
                "coordinates": [
                    35.117953, 
                    31.784351
                ]
            }, 
            "type": "Feature", 
            "properties": {
                "name": "צובה"
            }
        }, 
        {
            "geometry": {
                "type": "Point", 
                "coordinates": [
                    34.90099, 
                    32.391836
                ]
            }, 
            "type": "Feature", 
            "properties": {
                "name": "גאולי תימן (שכון"
            }
        }, 
        {
            "geometry": {
                "type": "Point", 
                "coordinates": [
                    35.143075, 
                    31.659674
                ]
            }, 
            "type": "Feature", 
            "properties": {
                "name": "אלעזר"
            }
        }, 
        {
            "geometry": {
                "type": "Point", 
                "coordinates": [
                    34.413406, 
                    31.248462
                ]
            }, 
            "type": "Feature", 
            "properties": {
                "name": "עמיעוז"
            }
        }, 
        {
            "geometry": {
                "type": "Point", 
                "coordinates": [
                    35.025287, 
                    32.123197
                ]
            }, 
            "type": "Feature", 
            "properties": {
                "name": "ספיר"
            }
        }, 
        {
            "geometry": {
                "type": "Point", 
                "coordinates": [
                    35.076561, 
                    32.558074
                ]
            }, 
            "type": "Feature", 
            "properties": {
                "name": "גלעד (אבן יצחק)"
            }
        }, 
        {
            "geometry": {
                "type": "Point", 
                "coordinates": [
                    35.503779, 
                    32.708764
                ]
            }, 
            "type": "Feature", 
            "properties": {
                "name": "יבנאל"
            }
        }, 
        {
            "geometry": {
                "type": "Point", 
                "coordinates": [
                    35.103201, 
                    32.5294
                ]
            }, 
            "type": "Feature", 
            "properties": {
                "name": "בסמ\"ה"
            }
        }, 
        {
            "geometry": {
                "type": "Point", 
                "coordinates": [
                    34.790464, 
                    31.76997099999999
                ]
            }, 
            "type": "Feature", 
            "properties": {
                "name": "בני ראם"
            }
        }, 
        {
            "geometry": {
                "type": "Point", 
                "coordinates": [
                    34.948817, 
                    32.27708
                ]
            }, 
            "type": "Feature", 
            "properties": {
                "name": "פורת"
            }
        }, 
        {
            "geometry": {
                "type": "Point", 
                "coordinates": [
                    35.083682, 
                    31.249245
                ]
            }, 
            "type": "Feature", 
            "properties": {
                "name": "כסיפה"
            }
        }, 
        {
            "geometry": {
                "type": "Point", 
                "coordinates": [
                    34.722579, 
                    31.831038
                ]
            }, 
            "type": "Feature", 
            "properties": {
                "name": "כפר אביב"
            }
        }, 
        {
            "geometry": {
                "type": "Point", 
                "coordinates": [
                    34.721088, 
                    31.045194
                ]
            }, 
            "type": "Feature", 
            "properties": {
                "name": "רביבים"
            }
        }, 
        {
            "geometry": {
                "type": "Point", 
                "coordinates": [
                    34.897156, 
                    32.314725
                ]
            }, 
            "type": "Feature", 
            "properties": {
                "name": "בית חירות"
            }
        }, 
        {
            "geometry": {
                "type": "Point", 
                "coordinates": [
                    34.612071, 
                    31.326274
                ]
            }, 
            "type": "Feature", 
            "properties": {
                "name": "פדויים"
            }
        }, 
        {
            "geometry": {
                "type": "Point", 
                "coordinates": [
                    35.576734, 
                    33.021114
                ]
            }, 
            "type": "Feature", 
            "properties": {
                "name": "איילת השחר"
            }
        }, 
        {
            "geometry": {
                "type": "Point", 
                "coordinates": [
                    34.814808, 
                    31.773965
                ]
            }, 
            "type": "Feature", 
            "properties": {
                "name": "רבדים"
            }
        },